[
    {
        "lng": "69.23783190000002",
        "name": "Dzhuma Mosque",
        "lat": "41.3238387"
    },
    {
        "lng": "69.275035",
        "name": "Minor Mosque",
        "lat": "41.3353102"
    },
    {
        "lng": "69.20484320000001",
        "name": "Kukcha Mosque",
        "lat": "41.3227628"
    },
    {
        "lng": "69.3092619",
        "name": "Islom Ota Masjidi",
        "lat": "41.2770776"
    },
    {
        "lng": "69.18782829999999",
        "name": "Mosque Ilon-Ota",
        "lat": "41.2637674"
    },
    {
        "lng": "69.2301088",
        "name": "Kamolon Mosque",
        "lat": "41.3058116"
    },
    {
        "lng": "69.2413183",
        "name": "Khazrati Imom Maszhidi, Karasaray Kuchasi, Tashkent, Uzbekistan",
        "lat": "41.3374686"
    },
    {
        "lng": "69.23218949999999",
        "name": "Mosque",
        "lat": "41.3171945"
    },
    {
        "lng": "69.2412468",
        "name": "Abdulla Murodxo'jayev 17a",
        "lat": "41.3375039"
    },
    {
        "lng": "69.22985899999999",
        "name": "Eshon Guzar",
        "lat": "41.3123601"
    },
    {
        "lng": "69.292441",
        "name": "Mirzo-Yusuf Mosque",
        "lat": "41.3399387"
    },
    {
        "lng": "69.2400288",
        "name": "Tillya Sheikh Mosque",
        "lat": "41.3367854"
    },
    {
        "lng": "69.2920884",
        "name": "Masjid Al Badr",
        "lat": "41.269201"
    },
    {
        "lng": "69.2409643",
        "name": "Khazrati Imam Mosque",
        "lat": "41.3373577"
    },
    {
        "lng": "69.13283640000002",
        "name": "Назарбек Масжиди",
        "lat": "41.3025505"
    },
    {
        "lng": "69.168943",
        "name": "Imom Khasan mosque",
        "lat": "41.3380479"
    },
    {
        "lng": "69.2397082",
        "name": "Madrasah of Abdulkasim Sheikh",
        "lat": "41.3067317"
    },
    {
        "lng": "69.1838862",
        "name": "Dorussalom masjidi",
        "lat": "41.3480479"
    },
    {
        "lng": "69.1642091",
        "name": "Beshqo'rg'on Masjidi",
        "lat": "41.2320493"
    },
    {
        "lng": "69.2191113",
        "name": "Firdaws",
        "lat": "41.3296799"
    },
    {
        "lng": "69.2298102",
        "name": "Sagbon Kuchasi, Toshkent, Mozor",
        "lat": "41.3472156"
    },
    {
        "lng": "69.2202224",
        "name": "Chigatay Mosque",
        "lat": "41.3402833"
    },
    {
        "lng": "69.15802750000002",
        "name": "Zangiota",
        "lat": "41.1971505"
    },
    {
        "lng": "69.24594119999999",
        "name": "Rakat Jami Mosque",
        "lat": "41.2903135"
    },
    {
        "lng": "69.3174647",
        "name": "Yunusobod Aktepa Mosque",
        "lat": "41.3638632"
    },
    {
        "lng": "69.2031756",
        "name": "Khasan Kori",
        "lat": "41.29615159999999"
    },
    {
        "lng": "69.3158632",
        "name": "Xayr Mosque",
        "lat": "41.3818395"
    },
    {
        "lng": "69.2281459",
        "name": "Яккасарой жомеъ масжиди",
        "lat": "41.2665535"
    },
    {
        "lng": "69.2269554",
        "name": "Novza Jome' Masjidi",
        "lat": "41.2940167"
    },
    {
        "lng": "69.1944207",
        "name": "Ahmadjan Qari Mosque",
        "lat": "41.3601561"
    },
    {
        "lng": "69.24496429999999",
        "name": "Усмон бин Мазъун масжиди",
        "lat": "41.2656604"
    },
    {
        "lng": "69.1839651",
        "name": "Чўпон ота жоме масжиди",
        "lat": "41.2901237"
    },
    {
        "lng": "69.186362",
        "name": "Shayx Muhammad Sodiq Muhammad Yusuf masjidi",
        "lat": "41.2593757"
    },
    {
        "lng": "69.21575469999999",
        "name": "Qozirabod Jome' Masjidi",
        "lat": "41.2772194"
    },
    {
        "lng": "69.17365149999999",
        "name": "Tinchlik jome' masjidi",
        "lat": "41.264887"
    },
    {
        "lng": "69.357829",
        "name": "Mosque",
        "lat": "41.3236251"
    },
    {
        "lng": "69.37655629999999",
        "name": "\"To‘ra buva\" jome masjidi",
        "lat": "41.3495985"
    },
    {
        "lng": "69.2804041",
        "name": "Қўшқўрғон жомеъ масжиди",
        "lat": "41.24886619999999"
    },
    {
        "lng": "69.1967835",
        "name": "Mosque",
        "lat": "41.290865"
    },
    {
        "lng": "69.2362395",
        "name": "Mechet' Baland",
        "lat": "41.3159728"
    },
    {
        "lng": "69.1972507",
        "name": "Эшон-Бобохон жомеъ масжиди",
        "lat": "41.34431499999999"
    },
    {
        "lng": "69.29184839999999",
        "name": "Mechet' Kulol Kurgon",
        "lat": "41.380446"
    },
    {
        "lng": "69.15071739999999",
        "name": "Masjid",
        "lat": "41.3314591"
    },
    {
        "lng": "69.2403125",
        "name": "Muyi Muborak Madrasah (Moyie Mubarek Library Museum)",
        "lat": "41.3369302"
    },
    {
        "lng": "69.1693561",
        "name": "Бурҳониддин Марғилоний жомеъ масжиди",
        "lat": "41.3151413"
    },
    {
        "lng": "69.3638742",
        "name": "Али ибн Абу Толиб жомеъ масжиди",
        "lat": "41.2966986"
    },
    {
        "lng": "69.200649",
        "name": "Nosirkhon mosque",
        "lat": "41.257161"
    },
    {
        "lng": "69.1584484",
        "name": "Masjid",
        "lat": "41.3125296"
    },
    {
        "lng": "69.1999096",
        "name": "Islam - Mosque",
        "lat": "41.3101652"
    },
    {
        "lng": "69.26908209999999",
        "name": "Umar Bin Hattab Mosque",
        "lat": "41.3501962"
    },
    {
        "lng": "69.19633350000001",
        "name": "Niyozmat ota jome' masjidi",
        "lat": "41.22950429999999"
    },
    {
        "lng": "69.1881611",
        "name": "Choshtepa jome masjidi",
        "lat": "41.2369813"
    },
    {
        "lng": "69.32735699999999",
        "name": "Mosque",
        "lat": "41.2582576"
    },
    {
        "lng": "69.3020846",
        "name": "Валихўжа ўғли Норҳўжа жомеъ масжиди",
        "lat": "41.2558838"
    },
    {
        "lng": "69.2116039",
        "name": "Мунаввар қори",
        "lat": "41.3322699"
    },
    {
        "lng": "69.1167464",
        "name": "Abu Bakr Siddiq jome' masjidi",
        "lat": "41.3367486"
    },
    {
        "lng": "69.14123719999999",
        "name": "Абу Ҳанифа жомеъ масжиди",
        "lat": "41.2865311"
    },
    {
        "lng": "69.2387696",
        "name": "Quddus Sharif Mosque",
        "lat": "41.21217679999999"
    },
    {
        "lng": "69.0845209",
        "name": "Dorussalom jome' masjidi Доруссалом жомеъ масжиди.",
        "lat": "41.20465009999999"
    },
    {
        "lng": "69.1669615",
        "name": "Masjid",
        "lat": "41.22421749999999"
    }
]